$GPGGA,010000.00,5000.72671,N,00815.0747,E,1,04,1.5,1,M,,,,*19
$GPGLL,5000.72671,N,00815.0747,E,010000.00,A,A*50
$GPGSA,A,3,01,02,03,04,,,,,,,,,1.0,2.0,3.0*36
$GPRMC,010000.00,A,5000.72671,N,00815.0747,E,29.1576,89.66626,010704,,,A*58
$GPGGA,010010.00,5000.73664,N,00816.7793,E,1,04,1.5,1,M,,,,*10
$GPGLL,5000.73664,N,00816.7793,E,010010.00,A,A*59
$GPGSA,A,3,01,02,03,04,,,,,,,,,1.0,2.0,3.0*36
$GPRMC,010010.00,A,5000.73664,N,00816.7793,E,29.1576,180.45117,010704,,,A*6D
$GPGGA,010020.00,5000.08461,N,00816.7742,E,1,04,1.5,1,M,,,,*14
$GPGLL,5000.08461,N,00816.7742,E,010020.00,A,A*5D
$GPGSA,A,3,01,02,03,04,,,,,,,,,1.0,2.0,3.0*36
$GPRMC,010020.00,A,5000.08461,N,00816.7742,E,29.1576,270.1119,010704,,,A*5B
$GPGGA,010030.00,5000.08792,N,00815.0798,E,1,04,1.5,1,M,,,,*19
$GPGLL,5000.08792,N,00815.0798,E,010030.00,A,A*50
$GPGSA,A,3,01,02,03,04,,,,,,,,,1.0,2.0,3.0*36
$GPRMC,010030.00,A,5000.08792,N,00815.0798,E,29.1576,-0.0,010704,,,A*46
$GPGGA,010040.00,5000.73002,N,00815.0798,E,1,04,1.5,1,M,,,,*1C
$GPGLL,5000.73002,N,00815.0798,E,010040.00,A,A*55
$GPGSA,A,3,01,02,03,04,,,,,,,,,1.0,2.0,3.0*36
$GPRMC,010040.00,A,5000.73002,N,00815.0798,E,29.1576,90.90628,010704,,,A*52
$GPGGA,010050.00,5000.70354,N,00816.7537,E,1,04,1.5,1,M,,,,*1D
$GPGLL,5000.70354,N,00816.7537,E,010050.00,A,A*54
$GPGSA,A,3,01,02,03,04,,,,,,,,,1.0,2.0,3.0*36
$GPRMC,010050.00,A,5000.70354,N,00816.7537,E,29.1576,181.48932,010704,,,A*63
$GPGGA,010100.00,5000.11109,N,00816.7382,E,1,04,1.5,1,M,,,,*1C
$GPGLL,5000.11109,N,00816.7382,E,010100.00,A,A*55
$GPGSA,A,3,01,02,03,04,,,,,,,,,1.0,2.0,3.0*36
$GPRMC,010100.00,A,5000.11109,N,00816.7382,E,29.1576,270.2345,010704,,,A*5B
$GPGGA,010110.00,5000.11771,N,00815.1209,E,1,04,1.5,1,M,,,,*13
$GPGLL,5000.11771,N,00815.1209,E,010110.00,A,A*5A
$GPGSA,A,3,01,02,03,04,,,,,,,,,1.0,2.0,3.0*36
$GPRMC,010110.00,A,5000.11771,N,00815.1209,E,29.1576,359.0014,010704,,,A*5B
$GPGGA,010120.00,5000.70685,N,00815.1106,E,1,04,1.5,1,M,,,,*11
$GPGLL,5000.70685,N,00815.1106,E,010120.00,A,A*58
$GPGSA,A,3,01,02,03,04,,,,,,,,,1.0,2.0,3.0*36
$GPRMC,010120.00,A,5000.70685,N,00815.1106,E,29.1576,91.33619,010704,,,A*55
$GPGGA,010130.00,5000.67045,N,00816.6715,E,1,04,1.5,1,M,,,,*1C
$GPGLL,5000.67045,N,00816.6715,E,010130.00,A,A*55
$GPGSA,A,3,01,02,03,04,,,,,,,,,1.0,2.0,3.0*36
$GPRMC,010130.00,A,5000.67045,N,00816.6715,E,29.1576,178.87505,010704,,,A*6F
$GPGGA,010140.00,5000.14750,N,00816.6818,E,1,04,1.5,1,M,,,,*1E
$GPGLL,5000.14750,N,00816.6818,E,010140.00,A,A*57
$GPGSA,A,3,01,02,03,04,,,,,,,,,1.0,2.0,3.0*36
$GPRMC,010140.00,A,5000.14750,N,00816.6818,E,29.1576,270.24872,010704,,,A*62
$GPGGA,010150.00,5000.15412,N,00815.1568,E,1,04,1.5,1,M,,,,*15
$GPGLL,5000.15412,N,00815.1568,E,010150.00,A,A*5C
$GPGSA,A,3,01,02,03,04,,,,,,,,,1.0,2.0,3.0*36
$GPRMC,010150.00,A,5000.15412,N,00815.1568,E,29.1576,0.55899423,010704,,,A*5A
$GPGGA,010200.00,5000.68037,N,00815.1620,E,1,04,1.5,1,M,,,,*15
$GPGLL,5000.68037,N,00815.1620,E,010200.00,A,A*5C
$GPGSA,A,3,01,02,03,04,,,,,,,,,1.0,2.0,3.0*36
$GPRMC,010200.00,A,5000.68037,N,00815.1620,E,29.1576,91.45587,010704,,,A*54
$GPGGA,010210.00,5000.64397,N,00816.5945,E,1,04,1.5,1,M,,,,*1A
$GPGLL,5000.64397,N,00816.5945,E,010210.00,A,A*53
$GPGSA,A,3,01,02,03,04,,,,,,,,,1.0,2.0,3.0*36
$GPRMC,010210.00,A,5000.64397,N,00816.5945,E,29.1576,177.40665,010704,,,A*68
$GPGGA,010220.00,5000.19053,N,00816.6150,E,1,04,1.5,1,M,,,,*17
$GPGLL,5000.19053,N,00816.6150,E,010220.00,A,A*5E
$GPGSA,A,3,01,02,03,04,,,,,,,,,1.0,2.0,3.0*36
$GPRMC,010220.00,A,5000.19053,N,00816.6150,E,29.1576,270.0,010704,,,A*60
$GPGGA,010230.00,5000.19053,N,00815.1979,E,1,04,1.5,1,M,,,,*11
$GPGLL,5000.19053,N,00815.1979,E,010230.00,A,A*58
$GPGSA,A,3,01,02,03,04,,,,,,,,,1.0,2.0,3.0*36
$GPRMC,010230.00,A,5000.19053,N,00815.1979,E,29.1576,0.62591106,010704,,,A*5D
$GPGGA,010240.00,5000.66052,N,00815.2030,E,1,04,1.5,1,M,,,,*18
$GPGLL,5000.66052,N,00815.2030,E,010240.00,A,A*51
$GPGSA,A,3,01,02,03,04,,,,,,,,,1.0,2.0,3.0*36
$GPRMC,010240.00,A,5000.66052,N,00815.2030,E,29.1576,92.1887,010704,,,A*67
$GPGGA,010250.00,5000.61087,N,00816.5021,E,1,04,1.5,1,M,,,,*12
$GPGLL,5000.61087,N,00816.5021,E,010250.00,A,A*5B
$GPGSA,A,3,01,02,03,04,,,,,,,,,1.0,2.0,3.0*36
$GPRMC,010250.00,A,5000.61087,N,00816.5021,E,29.1576,173.73253,010704,,,A*65
$GPGGA,010300.00,5000.23686,N,00816.5431,E,1,04,1.5,1,M,,,,*12
$GPGLL,5000.23686,N,00816.5431,E,010300.00,A,A*5B
$GPGSA,A,3,01,02,03,04,,,,,,,,,1.0,2.0,3.0*36
$GPRMC,010300.00,A,5000.23686,N,00816.5431,E,29.1576,269.85458,010704,,,A*69
$GPGGA,010310.00,5000.23355,N,00815.2390,E,1,04,1.5,1,M,,,,*10
$GPGLL,5000.23355,N,00815.2390,E,010310.00,A,A*59
$GPGSA,A,3,01,02,03,04,,,,,,,,,1.0,2.0,3.0*36
$GPRMC,010310.00,A,5000.23355,N,00815.2390,E,29.1576,0.74064964,010704,,,A*58
$GPGGA,010320.00,5000.63073,N,00815.2441,E,1,04,1.5,1,M,,,,*1B
$GPGLL,5000.63073,N,00815.2441,E,010320.00,A,A*52
$GPGSA,A,3,01,02,03,04,,,,,,,,,1.0,2.0,3.0*36
$GPRMC,010320.00,A,5000.63073,N,00815.2441,E,29.1576,247.0,010704,,,A*68
